[
  {
    "address": "EESL EDC Parking Goa",
    "city": "Goa",
    "availability": 1,
    "contact": "",
    "isValidated": "1",
    "issue": 0,
    "longitude": "73.8372222",
    "name": "EESL Legislative Assembly Goa",
    "notes": "",
    "phones": "",
    "pincode": "403503",
    "pricing": "10/min",
    "state": "Goa",
    "stationid": "1",
    "type": "0",
    "connectors": ["Type 2"],
    "latitude": "15.5104722"
  },
  {
    "address": "SDMC Parking, R Block, GK-1, DELHI-110016",
    "city": "Delhi",
    "availability": 1,
    "contact": "",
    "isValidated": "1",
    "issue": 0,
    "longitude": "77.244324",
    "name": "EESL R block GK1",
    "notes": "",
    "phones": "",
    "pincode": "110016",
    "pricing": "20/min",
    "state": "Delhi",
    "stationid": "2",
    "type": "0",
    "connectors": ["Type 1", "Type 2"],
    "latitude": "28.547217"
  },
  {
    "address": "SDMC Parking, SDA Market, Hauz Khas, New Delhi, Delhi 110016",
    "city": "Delhi",
    "availability": 1,
    "contact": "",
    "isValidated": "1",
    "issue": 0,
    "longitude": "77.19711",
    "name": "EESL SDA market",
    "notes": "",
    "phones": "",
    "pincode": "110016",
    "pricing": "4/min",
    "state": "Delhi",
    "stationid": "3",
    "type": "0",
    "connectors": ["Type 2"],
    "latitude": "28.546273"
  },
  {
    "address": "Near Tata Advance Systems, sector- 59, Noida",
    "city": "Noida",
    "availability": 1,
    "contact": "",
    "isValidated": "1",
    "issue": 0,
    "longitude": "77.362725",
    "name": "EESL Tata Advance Systems Noida",
    "notes": "",
    "phones": "",
    "pincode": "201301",
    "pricing": "25/min",
    "state": "Uttar Pradesh",
    "stationid": "4",
    "type": "1",
    "connectors": ["Type 2"],
    "latitude": "28.608947"
  },
  {
    "address": "Sanghumukham DTPC office, Shanghumukham beach, thiruvananthapuram,Kerala- 605007",
    "city": "Thiruvananthapuram",
    "availability": 1,
    "contact": "",
    "isValidated": "1",
    "issue": 0,
    "longitude": "76.912456",
    "name": "ANERT-EESL Sangamukham Kerala",
    "notes": "",
    "phones": "",
    "pincode": "605007",
    "pricing": "78/min",
    "state": "Kerala",
    "stationid": "8",
    "type": "0",
    "latitude": "8.481159",
    "connectors": ["Type 1", "Type 2"]
  },
  {
    "address": "State Council For Child Welfare, CV Raman Pillai Rd, Near Kerala, Housing Board, Thycaud, Thiruvananthapuram, Kerala 695014",
    "city": "Thiruvananthapuram",
    "availability": 1,
    "contact": "",
    "isValidated": "1",
    "issue": 0,
    "longitude": "76.9572956",
    "name": "ANERT-EESL Thycaud Kerala",
    "notes": "",
    "phones": "",
    "pincode": "695014",
    "pricing": "34/min",
    "state": "Kerala",
    "stationid": "9",
    "type": "0",
    "latitude": "8.4927752",
    "connectors": ["Type 1", "Type 2"]
  },
  {
    "address": "EESL Veer Savarkar Marg, Lajpat Nagar, SDMC parking New Delhi",
    "city": "Delhi",
    "availability": 1,
    "contact": "",
    "isValidated": "1",
    "issue": 0,
    "longitude": "77.0909568",
    "name": "EESL Veer Savarkar Marg, Lajpat Nagar",
    "notes": "",
    "phones": "",
    "pincode": "110024",
    "pricing": "35/min",
    "state": "Delhi",
    "stationid": "10",
    "type": "0",
    "latitude": "28.5584839",
    "connectors": ["Type 1", "Type 2"]
  },
  {
    "address": "HAREDA, Akshay Urja Bhawan , Institutional plot No.1 Sector-17 Panchkula , 134109 Haryana",
    "city": "Panchkula",
    "availability": 1,
    "contact": "",
    "isValidated": "1",
    "issue": 0,
    "longitude": "76.834874",
    "name": "HAREDA EESL Panchkula",
    "notes": "",
    "phones": "",
    "pincode": "134109",
    "pricing": "46/min",
    "state": "Haryana",
    "stationid": "11",
    "type": "0",
    "latitude": "30.695929",
    "connectors": ["Type 1", "Type 2"]
  },
  {
    "address": "ECO Park,Gate No1,West Bengal:700156",
    "city": "Kolkata",
    "availability": 1,
    "contact": "",
    "isValidated": "1",
    "issue": 0,
    "longitude": "88.4729",
    "name": "\u00a0EESL ECO Park Gate No 1 New Town",
    "notes": "",
    "phones": "",
    "pincode": "700156",
    "pricing": "67/min",
    "state": "West Bengal",
    "stationid": "14",
    "type": "0",
    "latitude": "22.594",
    "connectors": ["Type 1", "Type 2"]
  },
  {
    "address": "\u00a0EESL Biswa Bangla Gate Rotary, Kolkata West Bengal",
    "city": "Kolkata",
    "availability": 1,
    "contact": "",
    "isValidated": "1",
    "issue": 0,
    "longitude": "88.4687647",
    "name": "\u00a0EESL Biswa Bangla Gate Rotary",
    "notes": "",
    "phones": "",
    "pincode": "700156",
    "pricing": "89/min",
    "state": "West Bengal",
    "stationid": "15",
    "type": "0",
    "latitude": "22.5791553",
    "connectors": ["Type 2"]
  },
  {
    "address": "High Court Metro Station Chennai (CMRL)",
    "city": "Chennai",
    "availability": 1,
    "contact": "",
    "isValidated": "1",
    "issue": 0,
    "longitude": "80.285359",
    "name": "EESL Adhoc New Central, HPCL, New Town",
    "notes": "",
    "phones": "",
    "pincode": "0",
    "pricing": "60/min",
    "state": "Tamil Nadu",
    "stationid": "17",
    "type": "0",
    "latitude": "13.088249",
    "connectors": ["Type 2"]
  },
  {
    "address": " Chennai Egmore metro, Chennai (CMRL)",
    "city": "Chennai",
    "availability": 1,
    "contact": "",
    "isValidated": "1",
    "issue": 0,
    "longitude": "80.261538",
    "name": "EESL Chennai Egmore metro",
    "notes": "",
    "phones": "",
    "pincode": "0",
    "pricing": "78/min",
    "state": "Tamil Nadu",
    "stationid": "19",
    "type": "0",
    "latitude": "13.079097",
    "connectors": ["Type 2"]
  },
  {
    "address": "Saidapet Metro station",
    "city": "Chennai",
    "availability": 1,
    "contact": "",
    "isValidated": "1",
    "issue": 0,
    "longitude": "80.2282",
    "name": "EESL Saidapet Metro station",
    "notes": "",
    "phones": "",
    "pincode": "0",
    "pricing": "40/min",
    "state": "Tamil Nadu",
    "stationid": "22",
    "type": "0",
    "latitude": "13.0237",
    "connectors": ["Type 2"]
  },
  {
    "address": "Tirumangalam Metro station",
    "city": "Chennai",
    "availability": 1,
    "contact": "",
    "isValidated": "1",
    "issue": 0,
    "longitude": "80.2016",
    "name": "EESL Tirumangalam Metro station",
    "notes": "",
    "phones": "",
    "pincode": "0",
    "pricing": "60/min",
    "state": "Tamil Nadu",
    "stationid": "25",
    "type": "0",
    "latitude": "13.0853",
    "connectors": ["Type 2"]
  },
  {
    "address": "EESL N-Block GK-1, SDMC parking New Delhi",
    "city": "Delhi",
    "availability": 1,
    "contact": "",
    "isValidated": "1",
    "issue": 0,
    "longitude": "77.232732",
    "name": "EESL Alandur metro",
    "notes": "",
    "phones": "",
    "pincode": "110048",
    "pricing": "20/min",
    "state": "Delhi",
    "stationid": "26",
    "type": "0",
    "latitude": "28.556608",
    "connectors": ["Type 1"]
  },
  {
    "address": "KTDC Tourist Reception Centre Shanmugham road, Ernakulam, Marine drive, Kochi Kerala-682031",
    "city": "Ernakulam",
    "availability": 1,
    "contact": "",
    "isValidated": "1",
    "issue": 0,
    "longitude": "76.27777",
    "name": "EESL Chennai Egmore metro",
    "notes": "",
    "phones": "",
    "pincode": "682031",
    "pricing": "30/min",
    "state": "Kerala",
    "stationid": "27",
    "type": "0",
    "latitude": "9.977164",
    "connectors": ["Type 1"]
  },
  {
    "address": "Side parking of HCL building, sector-8, Noida",
    "city": "Noida",
    "availability": 1,
    "contact": "",
    "isValidated": "1",
    "issue": 0,
    "longitude": "77.3635947",
    "name": "EESL Adhoc New Central, HPCL, New Town",
    "notes": "",
    "phones": "",
    "pincode": "201301",
    "pricing": "40/min",
    "state": "Uttar Pradesh",
    "stationid": "29",
    "type": "0",
    "latitude": "28.582421",
    "connectors": ["Type 1"]
  },
  {
    "address": "In front of affinity salon, sector- 51, Noida",
    "city": "Noida",
    "availability": 1,
    "contact": "",
    "isValidated": "1",
    "issue": 0,
    "longitude": "77.3587651",
    "name": "EESL Shapoorji Bus Terminus Newtown",
    "notes": "",
    "phones": "",
    "pincode": "201301",
    "pricing": "20/min",
    "state": "Uttar Pradesh",
    "stationid": "30",
    "type": "0",
    "latitude": "28.577319",
    "connectors": ["Type 1"]
  },
  {
    "address": "KTDC Tourist Reception Centre Shanmugham road, Ernakulam, Marine drive, Kochi Kerala-682031",
    "city": "Muriyil",
    "availability": 1,
    "contact": "",
    "isValidated": "1",
    "issue": 0,
    "longitude": "76.3352",
    "name": "EESL Koyambedu",
    "notes": "",
    "phones": "",
    "pincode": "682031",
    "pricing": "30/min",
    "state": "Kerala",
    "stationid": "31",
    "type": "0",
    "latitude": "9.63628",
    "connectors": ["Type 1"]
  },
  {
    "address": "Opp C-101 Jain air travels, sector-2, Noida",
    "city": "Noida",
    "availability": 1,
    "contact": "",
    "isValidated": "1",
    "issue": 0,
    "longitude": "77.3137535",
    "name": "EESL Anna Nagar East Station",
    "notes": "",
    "phones": "",
    "pincode": "201301",
    "pricing": "30/min",
    "state": "Uttar Pradesh",
    "stationid": "32",
    "type": "0",
    "latitude": "28.5842756",
    "connectors": ["Type 1"]
  },
  {
    "address": "Near Adhoc New Central, HPCL, New Town, Kolkata",
    "city": "Kolkata",
    "availability": 1,
    "contact": "",
    "isValidated": "1",
    "issue": 0,
    "longitude": "88.466368",
    "name": "EESL Adhoc New Central, HPCL, New Town",
    "notes": "",
    "phones": "",
    "pincode": "700156",
    "pricing": "90/min",
    "state": "West Bengal",
    "stationid": "33",
    "type": "0",
    "latitude": "22.617907",
    "connectors": ["Type 1"]
  },
  {
    "address": "NRANVP, PARYAVAS BHAWAN, NORTH BLOCK, SECTOR 19, NAYA RAYPUR MARG, ATAL NAGAR RAIPUR",
    "city": "Raipur",
    "availability": 1,
    "contact": "",
    "isValidated": "1",
    "issue": 0,
    "longitude": "81.788547",
    "name": "EESL Prayas Bhawan Nava Raipur",
    "notes": "",
    "phones": "",
    "pincode": "492101",
    "pricing": "80/min",
    "state": "Chhattisgarh",
    "stationid": "34",
    "type": "0",
    "latitude": "21.163948",
    "connectors": ["Type 1"]
  },
  {
    "address": "CBD\nMantraly NAVA RAIPUR , ATAL NAGAR RAIPUR DIST. 492101 Chhatisgarh",
    "city": "Raipur",
    "availability": 1,
    "contact": "",
    "isValidated": "1",
    "issue": 0,
    "longitude": "81.796858",
    "name": "EESL Mantraly Naya Raipur",
    "notes": "",
    "phones": "",
    "pincode": "492101",
    "pricing": "30/min",
    "state": "Chhattisgarh",
    "stationid": "35",
    "type": "0",
    "latitude": "21.161505",
    "connectors": ["Type 1"]
  },
  {
    "address": "Near Shapoorji Bus Terminus Newtown Kolkata",
    "city": "Kolkata",
    "availability": 1,
    "contact": "",
    "isValidated": "1",
    "issue": 0,
    "longitude": "88.5169",
    "name": "EESL Shapoorji Bus Terminus Newtown",
    "notes": "",
    "phones": "",
    "pincode": "700156",
    "pricing": "80/min",
    "state": "West Bengal",
    "stationid": "38",
    "type": "0",
    "latitude": "22.5695",
    "connectors": ["Type 1"]
  },
  {
    "address": "Opp Sasta Sundar Hospital Sector 58 Noida",
    "city": "Noida",
    "availability": 1,
    "contact": "",
    "isValidated": "1",
    "issue": 0,
    "longitude": "77.3573349",
    "name": "EESL Pachaiyappa",
    "notes": "",
    "phones": "",
    "pincode": "201301",
    "pricing": "60/min",
    "state": "Uttar Pradesh",
    "stationid": "41",
    "type": "0",
    "latitude": "28.6057471",
    "connectors": ["Type 1"]
  },
  {
    "address": "Between kirti mann plaza and NMC hospital Sector 30 Noida",
    "city": "Noida",
    "availability": 1,
    "contact": "",
    "isValidated": "1",
    "issue": 0,
    "longitude": "77.3408251",
    "name": "EESL Kirti Mann Plaza Noida",
    "notes": "",
    "phones": "",
    "pincode": "201301",
    "pricing": "70/min",
    "state": "Uttar Pradesh",
    "stationid": "42",
    "type": "0",
    "latitude": "28.5726478",
    "connectors": ["Type 1"]
  },
  {
    "address": "Sector 142, Noida, Uttar Pradesh, 201305",
    "city": "Noida",
    "availability": 1,
    "contact": "",
    "isValidated": "1",
    "issue": 0,
    "longitude": "77.4108813",
    "name": "EESL Adwant Chowk Noida",
    "notes": "",
    "phones": "",
    "pincode": "201305",
    "pricing": "80/min",
    "state": "Uttar Pradesh",
    "stationid": "43",
    "type": "0",
    "latitude": "28.5000204",
    "connectors": ["Type 1"]
  },
  {
    "address": "Sector 15, Nithari, Noida, Dadri, Gautam Buddha Nagar, Uttar Pradesh, 201301, India",
    "city": "Noida",
    "availability": 1,
    "contact": "",
    "isValidated": "1",
    "issue": 0,
    "longitude": "77.3128436",
    "name": "EESL Alka Cinema Noida",
    "notes": "",
    "phones": "",
    "pincode": "201301",
    "pricing": "80/min",
    "state": "Uttar Pradesh",
    "stationid": "44",
    "type": "0",
    "latitude": "28.5826069",
    "connectors": ["Type 1"]
  },
  {
    "address": "Near RTO OfficeSector 33A, Noida, Ghaziabad, Uttar Pradesh, 201301, India",
    "city": "Noida",
    "availability": 1,
    "contact": "",
    "isValidated": "1",
    "issue": 0,
    "longitude": "77.3520796",
    "name": "EESL RTO Office Noida",
    "notes": "",
    "phones": "",
    "pincode": "201301",
    "pricing": "40/min",
    "state": "Uttar Pradesh",
    "stationid": "45",
    "type": "0",
    "latitude": "28.5880051",
    "connectors": ["Type 1"]
  },
  {
    "address": "Chennai Metro Alandur station Car parking area, Alandur, Chennai 600016",
    "city": "Chennai",
    "availability": 1,
    "contact": "",
    "isValidated": "1",
    "issue": 0,
    "longitude": "80.201548",
    "name": "EESL Alandur metro",
    "notes": "",
    "phones": "",
    "pincode": "0",
    "pricing": "40/min",
    "state": "Tamil Nadu",
    "stationid": "46",
    "type": "0",
    "latitude": "13.003498",
    "connectors": ["Type 1"]
  },
  {
    "address": "Ganga Shopping Complex, Sector 29, Noida, Uttar Pradesh 201301",
    "city": "Noida",
    "availability": 1,
    "contact": "",
    "isValidated": "1",
    "issue": 0,
    "longitude": "77.3353024",
    "name": "EESL Ganga Shopping Complex Noida",
    "notes": "",
    "phones": "",
    "pincode": "201301",
    "pricing": "70/min",
    "state": "Uttar Pradesh",
    "stationid": "47",
    "type": "0",
    "latitude": "28.5670208",
    "connectors": ["Type 1"]
  },
  {
    "address": "road between sector 124 & 125 and beside SPCl Sector Road, Noida, Uttar Pradesh, 201313",
    "city": "Noida",
    "availability": 1,
    "contact": "",
    "isValidated": "1",
    "issue": 0,
    "longitude": "77.3272594",
    "name": "EESL SPCI Noida",
    "notes": "",
    "phones": "",
    "pincode": "201313",
    "pricing": "80/min",
    "state": "Uttar Pradesh",
    "stationid": "48",
    "type": "0",
    "latitude": "28.5447044",
    "connectors": ["Type 1"]
  },
  {
    "address": "Near Tank No 3, Opp Goutams, Street Number 24,Sub Central Business District Action Area 1, Action Area I, Newtown West Bengal 700156",
    "city": "Kolkata",
    "availability": 1,
    "contact": "",
    "isValidated": "1",
    "issue": 0,
    "longitude": "88.4508228",
    "name": "EESL New Town",
    "notes": "",
    "phones": "",
    "pincode": "700156",
    "pricing": "50/min",
    "state": "West Bengal",
    "stationid": "54",
    "type": "0",
    "latitude": "22.5785885",
    "connectors": ["Type 1"]
  },
  {
    "address": "NKDA New Town Business Club Parking Lot, AE Block(Newtown), Newtown, West Bengal 700059",
    "city": "Kolkata",
    "availability": 1,
    "contact": "",
    "isValidated": "1",
    "issue": 0,
    "longitude": "88.4547116",
    "name": "EESL Business Club New Town ",
    "notes": "",
    "phones": "",
    "pincode": "700059",
    "pricing": "40/min",
    "state": "West Bengal",
    "stationid": "56",
    "type": "0",
    "latitude": "22.5852479",
    "connectors": ["Type 1"]
  },
  {
    "address": "Parking Lot, 7 Wonders, Gate No 4, Eco Park Entry Plaza, AA IIB, Newtown, Kolkata, West Bengal 700135",
    "city": "Kolkata",
    "availability": 1,
    "contact": "",
    "isValidated": "1",
    "issue": 0,
    "longitude": "88.466586",
    "name": "EESL Gate no 4 Eco Park New Town",
    "notes": "",
    "phones": "",
    "pincode": "700135",
    "pricing": "34/min",
    "state": "West Bengal",
    "stationid": "57",
    "type": "0",
    "latitude": "22.611245",
    "connectors": ["Type 1"]
  },
  {
    "address": "Parking Lot Golf Club, Gate no. 6, Ecopark, Deshbandhu Nagar, Rekjuani, West Bengal 700156",
    "city": "Kolkata",
    "availability": 1,
    "contact": "",
    "isValidated": "1",
    "issue": 0,
    "longitude": "88.463918",
    "name": "EESL Gate No 6 Eco Park New Town ",
    "notes": "",
    "phones": "",
    "pincode": "700156",
    "pricing": "40/min",
    "state": "West Bengal",
    "stationid": "60",
    "type": "0",
    "latitude": "22.607778",
    "connectors": ["Type 1"]
  },
  {
    "address": "NKDA Parking Lot, Beside Tata Memorial Cancer Hospital , 14, MAR(E-W), DH Block(Newtown), Action Area I, Newtown, Kolkata, West Bengal 700160",
    "city": "Kolkata",
    "availability": 1,
    "contact": "",
    "isValidated": "1",
    "issue": 0,
    "longitude": "88.478575",
    "name": "EESL Tata Memorial Cancer Hospital ",
    "notes": "",
    "phones": "",
    "pincode": "700160",
    "pricing": "90/min",
    "state": "West Bengal",
    "stationid": "62",
    "type": "0",
    "latitude": "22.577346",
    "connectors": ["Type 1"]
  },
  {
    "address": "Noida Authority Parking at Central Market, Sector-50, Noida-201301",
    "city": "Noida",
    "availability": 1,
    "contact": "",
    "isValidated": "1",
    "issue": 0,
    "longitude": "77.3598121",
    "name": "EESL Sector 50 Market",
    "notes": "",
    "phones": "",
    "pincode": "201301",
    "pricing": "89/min",
    "state": "Uttar Pradesh",
    "stationid": "68",
    "type": "0",
    "latitude": "28.5704287",
    "connectors": ["Type 1"]
  },
  {
    "address": "Datta Digambar HPCL Service station, Yelahanka, Bangalore",
    "city": "Bangalore",
    "availability": 1,
    "contact": "",
    "isValidated": "1",
    "issue": 0,
    "longitude": "77.568071",
    "name": "EESL Yelahanka Bengaluru",
    "notes": "",
    "phones": "",
    "pincode": "0",
    "pricing": "70/min",
    "state": "Karnataka",
    "stationid": "69",
    "type": "0",
    "latitude": "13.152457",
    "connectors": ["Type 1"]
  },
  {
    "address": "State Council For Child Welfare, CV Raman Pillai Rd, Near Kerala, Housing Board, Thycaud, Thiruvananthapuram, Kerala 695014",
    "city": "Ernakulam",
    "availability": 1,
    "contact": "",
    "isValidated": "1",
    "issue": 0,
    "longitude": "76.27777",
    "name": "ANERT-EESL Ernakulam Kerala",
    "notes": "",
    "phones": "",
    "pincode": "695014",
    "pricing": "40/min",
    "state": "Kerala",
    "stationid": "72",
    "type": "0",
    "latitude": "9.977164",
    "connectors": ["Type 1"]
  },
  {
    "address": "Sector 61 Opposite Shopprix Mall , Noida, Uttar Pradesh, 201305",
    "city": "Noida",
    "availability": 1,
    "contact": "",
    "isValidated": "1",
    "issue": 0,
    "longitude": "77.3627113",
    "name": "EESL Shopprix Mall Noida",
    "notes": "",
    "phones": "",
    "pincode": "201305",
    "pricing": "50/min",
    "state": "Uttar Pradesh",
    "stationid": "75",
    "type": "0",
    "latitude": "28.5971047",
    "connectors": ["Type 1"]
  },
  {
    "address": "EESL J-Block, Malviya Nagar, parking New Delhi",
    "city": "Delhi",
    "availability": 1,
    "contact": "",
    "isValidated": "1",
    "issue": 0,
    "longitude": "77.208693",
    "name": "EESL Malviya Nagar Delhi",
    "notes": "",
    "phones": "",
    "pincode": "110017",
    "pricing": "30/min",
    "state": "Delhi",
    "stationid": "77",
    "type": "0",
    "latitude": "28.531006",
    "connectors": ["Type 2"]
  },
  {
    "address": "High Court Metro Station Chennai (CMRL)",
    "city": "Chennai",
    "availability": 1,
    "contact": "",
    "isValidated": "1",
    "issue": 0,
    "longitude": "80.285359",
    "name": "EESL High court station",
    "notes": "",
    "phones": "",
    "pincode": "0",
    "pricing": "10/min",
    "state": "Tamil Nadu",
    "stationid": "79",
    "type": "0",
    "latitude": "13.088249",
    "connectors": ["Type 2"]
  },
  {
    "address": "Koyam Bedu Metro Station, Chennai (CMRL)",
    "city": "Chennai",
    "availability": 1,
    "contact": "",
    "isValidated": "1",
    "issue": 0,
    "longitude": "80.195354",
    "name": "EESL Koyambedu",
    "notes": "",
    "phones": "",
    "pincode": "0",
    "pricing": "30/min",
    "state": "Tamil Nadu",
    "stationid": "81",
    "type": "0",
    "latitude": "13.074043",
    "connectors": ["Type 2"]
  },
  {
    "address": "Anna Nagar East Metro Station, Chennai (CMRL)",
    "city": "Chennai",
    "availability": 1,
    "contact": "",
    "isValidated": "1",
    "issue": 0,
    "longitude": "80.219897",
    "name": "EESL Anna Nagar East Station",
    "notes": "",
    "phones": "",
    "pincode": "0",
    "pricing": "55/min",
    "state": "Tamil Nadu",
    "stationid": "83",
    "type": "0",
    "latitude": "13.084713",
    "connectors": ["Type 2"]
  },
  {
    "address": "Electronic City , Metro Station parking gate no.2, Noida - 201301",
    "city": "Noida",
    "availability": 1,
    "contact": "",
    "isValidated": "1",
    "issue": 0,
    "longitude": "77.375142",
    "name": "EESL Electronic City Metro Station",
    "notes": "",
    "phones": "",
    "pincode": "201301",
    "pricing": "30/min",
    "state": "Uttar Pradesh",
    "stationid": "84",
    "type": "0",
    "latitude": "28.626475",
    "connectors": ["Type 1"]
  },
  {
    "address": "H Block market, Haldiram, Car parking , Sector - 63 , Noida - 201301",
    "city": "Noida",
    "availability": 1,
    "contact": "",
    "isValidated": "1",
    "issue": 0,
    "longitude": "77.375303",
    "name": "EESL H-Block Market, Haldiram",
    "notes": "",
    "phones": "",
    "pincode": "201301",
    "pricing": "19/min",
    "state": "Uttar Pradesh",
    "stationid": "85",
    "type": "0",
    "latitude": "28.628915",
    "connectors": ["Type 1", "Type 2"]
  },
  {
    "address": "Nandanam Metro station Chennai (CMRL)",
    "city": "Chennai",
    "availability": 1,
    "contact": "",
    "isValidated": "1",
    "issue": 0,
    "longitude": "80.241923",
    "name": "Chennai Metro Nandanam Station",
    "notes": "",
    "phones": "",
    "pincode": "0",
    "pricing": "34/min",
    "state": "Tamil Nadu",
    "stationid": "87",
    "type": "0",
    "latitude": "13.031759",
    "connectors": ["Type 1", "Type 2"]
  },
  {
    "address": "Nagpur Airport Metro Station, Nagpur",
    "city": "Nagpur",
    "availability": 1,
    "contact": "",
    "isValidated": "1",
    "issue": 0,
    "longitude": "79.0636227",
    "name": "EESL Nagpur",
    "notes": "",
    "phones": "",
    "pincode": "440005",
    "pricing": "47/min",
    "state": "Maharashtra",
    "stationid": "89",
    "type": "0",
    "latitude": "21.0870127",
    "connectors": ["Type 1", "Type 2"]
  },
  {
    "address": "Noida Authority Parking, near metro station, sector-16, Noida-201301",
    "city": "Noida",
    "availability": 1,
    "contact": "",
    "isValidated": "1",
    "issue": 0,
    "longitude": "77.317483",
    "name": "EESL Sector 16 Near Metro Station Noida",
    "notes": "",
    "phones": "",
    "pincode": "201301",
    "pricing": "20/min",
    "state": "Uttar Pradesh",
    "stationid": "90",
    "type": "0",
    "latitude": "28.578614",
    "connectors": ["Type 1", "Type 2"]
  },
  {
    "address": "Amenity Centre Kayamkulam, Alappuzha- 690502",
    "city": "Alazpuzha",
    "availability": 1,
    "contact": "",
    "isValidated": "1",
    "issue": 0,
    "longitude": "NA",
    "name": "ANERT-EESL KMML Chavara Kerala",
    "notes": "",
    "phones": "",
    "pincode": "690502",
    "pricing": "30/min",
    "state": "Kerala",
    "stationid": "93",
    "type": "0",
    "latitude": "NA",
    "connectors": ["Type 1", "Type 2"]
  },
  {
    "address": "Secretariat Office, Goa",
    "city": "Goa",
    "availability": 1,
    "contact": "",
    "isValidated": "1",
    "issue": 0,
    "longitude": "73.8368",
    "name": "EESL EDC Parking Goa",
    "notes": "",
    "phones": "",
    "pincode": "403521",
    "pricing": "20/min",
    "state": "Goa",
    "stationid": "94",
    "type": "0",
    "latitude": "15.5108",
    "connectors": ["Type 1", "Type 2"]
  },
  {
    "address": "NDMC Parking, Near Croma, D Block RR5, Opposite BPCL Petrol Pump, Connaught Place, New Delhi- 110001",
    "city": "Delhi",
    "availability": 1,
    "contact": "",
    "isValidated": "1",
    "issue": 0,
    "longitude": "77.221038",
    "name": "EESL Croma",
    "notes": "",
    "phones": "",
    "pincode": "110001",
    "pricing": "30/min",
    "state": "Delhi",
    "stationid": "105",
    "type": "0",
    "latitude": "28.634388",
    "connectors": ["Type 1", "Type 2"]
  },
  {
    "address": "Next to PVR Plaza, H Block RR4, Connaught Place, New Delhi- 110001",
    "city": "Delhi",
    "availability": 1,
    "contact": "",
    "isValidated": "1",
    "issue": 0,
    "longitude": "77.219522",
    "name": "EESL PVR Plaza",
    "notes": "",
    "phones": "",
    "pincode": "110001",
    "pricing": "20/min",
    "state": "Delhi",
    "stationid": "106",
    "type": "0",
    "latitude": "28.63491",
    "connectors": ["Type 1", "Type 2"]
  },
  {
    "address": "Near Woodland Showroom, Block B, Inner Circle, Connaught Place, New Delhi 110001",
    "city": "Delhi",
    "availability": 1,
    "contact": "",
    "isValidated": "1",
    "issue": 0,
    "longitude": "77.2195",
    "name": "EESL Block B",
    "notes": "",
    "phones": "",
    "pincode": "110001",
    "pricing": "50/min",
    "state": "Delhi",
    "stationid": "107",
    "type": "0",
    "latitude": "28.634371",
    "connectors": ["Type 1", "Type 2"]
  },
  {
    "address": "Opposite HP Petrol Pump, Block E, Middle Circle, Connaught Place, New Delhi- 110001",
    "city": "Delhi",
    "availability": 1,
    "contact": "",
    "isValidated": "1",
    "issue": 0,
    "longitude": "77.2219",
    "name": "EESL HP Petrol Pump",
    "notes": "",
    "phones": "",
    "pincode": "110001",
    "pricing": "100/min",
    "state": "Delhi",
    "stationid": "108",
    "type": "0",
    "latitude": "28.631584",
    "connectors": ["Type 1", "Type 2"]
  },
  {
    "address": "Outside Iqbal Bros., G1, Block G, Connaught Place, New Delhi- 110001",
    "city": "Delhi",
    "availability": 1,
    "contact": "",
    "isValidated": "1",
    "issue": 0,
    "longitude": "77.217664",
    "name": "EESL Iqbal Bros.",
    "notes": "",
    "phones": "",
    "pincode": "110001",
    "pricing": "30/min",
    "state": "Delhi",
    "stationid": "110",
    "type": "0",
    "latitude": "28.633841",
    "connectors": ["Type 1", "Type 2"]
  },
  {
    "address": "Akashvani Bhawan, Sansad Marg, New Delhi 110001",
    "city": "Delhi",
    "availability": 1,
    "contact": "",
    "isValidated": "1",
    "issue": 0,
    "longitude": "77.210994",
    "name": "EESL Akashwani Bhawan",
    "notes": "",
    "phones": "",
    "pincode": "110001",
    "pricing": "30/min",
    "state": "Delhi",
    "stationid": "117",
    "type": "0",
    "latitude": "28.622656",
    "connectors": ["Type 1", "Type 2"]
  },
  {
    "address": "Yashwant Place, Chanakyapuri, New Delhi- 110021",
    "city": "Delhi",
    "availability": 1,
    "contact": "",
    "isValidated": "1",
    "issue": 0,
    "longitude": "77.191634",
    "name": "EESL Yashwant Place",
    "notes": "",
    "phones": "",
    "pincode": "110021",
    "pricing": "40/min",
    "state": "Delhi",
    "stationid": "119",
    "type": "0",
    "latitude": "28.585492",
    "connectors": ["Type 1", "Type 2"]
  },
  {
    "address": "Near Bikanervala, Yashwant Place, Chanakyapuri, New Delhi- 110021",
    "city": "Delhi",
    "availability": 1,
    "contact": "",
    "isValidated": "1",
    "issue": 0,
    "longitude": "77.191008",
    "name": "EESL Yashwant Place Market",
    "notes": "",
    "phones": "",
    "pincode": "110021",
    "pricing": "10/min",
    "state": "Delhi",
    "stationid": "121",
    "type": "0",
    "latitude": "28.585298",
    "connectors": ["Type 1", "Type 2"]
  },
  {
    "address": "Dharma Marg, Block Y, Diplomatic Enclave, Malcha Market, New Delhi- 110021",
    "city": "Delhi",
    "availability": 1,
    "contact": "",
    "isValidated": "1",
    "issue": 0,
    "longitude": "77.186432",
    "name": "EESL Malcha Marg Market",
    "notes": "",
    "phones": "",
    "pincode": "110021",
    "pricing": "10/min",
    "state": "Delhi",
    "stationid": "122",
    "type": "0",
    "latitude": "28.601809",
    "connectors": ["Type 2"]
  },
  {
    "address": "Laxmi Bai Market, Safderjung Flyover, New Delhi",
    "city": "Delhi",
    "availability": 1,
    "contact": "",
    "isValidated": "1",
    "issue": 0,
    "longitude": "77.209521",
    "name": "EESL Laxmi Bai Market",
    "notes": "",
    "phones": "",
    "pincode": "110023",
    "pricing": "30/min",
    "state": "Delhi",
    "stationid": "123",
    "type": "0",
    "latitude": "28.577999",
    "connectors": ["Type 2"]
  },
  {
    "address": "Near ICICI Bank/Metro Gate No. 7 & 8, Block A, Inner Circle, Connaught Place, New Delhi 110001",
    "city": "Delhi",
    "availability": 1,
    "contact": "",
    "isValidated": "1",
    "issue": 0,
    "longitude": "77.218068",
    "name": "EESL Block A",
    "notes": "",
    "phones": "",
    "pincode": "110001",
    "pricing": "45/min",
    "state": "Delhi",
    "stationid": "124",
    "type": "0",
    "latitude": "28.63242",
    "connectors": ["Type 2"]
  },
  {
    "address": "Sarojini Nagar Market, Sarojini Nagar, New Delhi- 110023",
    "city": "Delhi",
    "availability": 1,
    "contact": "",
    "isValidated": "1",
    "issue": 0,
    "longitude": "77.19692",
    "name": "EESL Sarojini Nagar Market",
    "notes": "",
    "phones": "",
    "pincode": "110023",
    "pricing": "30/min",
    "state": "Delhi",
    "stationid": "125",
    "type": "0",
    "latitude": "28.577259",
    "connectors": ["Type 2"]
  },
  {
    "address": "Gopal Das Building, Barakhamba Road, Connaught Lane, Barakhamba, New Delhi110001",
    "city": "Delhi",
    "availability": 1,
    "contact": "",
    "isValidated": "1",
    "issue": 0,
    "longitude": "77.221654",
    "name": "EESL Gopal Das Building",
    "notes": "",
    "phones": "",
    "pincode": "110001",
    "pricing": "40/min",
    "state": "Delhi",
    "stationid": "126",
    "type": "0",
    "latitude": "28.631121",
    "connectors": ["Type 2"]
  },
  {
    "address": "Outside Jain Bhawan, 12 Shaheed Bhagat Singh Marg, Gole Market, New Delhi- 110001",
    "city": "Delhi",
    "availability": 1,
    "contact": "",
    "isValidated": "1",
    "issue": 0,
    "longitude": "77.207691",
    "name": "EESL Jain Bhawan",
    "notes": "",
    "phones": "",
    "pincode": "110001",
    "pricing": "15/min",
    "state": "Delhi",
    "stationid": "127",
    "type": "0",
    "latitude": "28.633614",
    "connectors": ["Type 2"]
  },
  {
    "address": "Hotel Claridges, Tees January Marg, Dr. APJ Abdul Kalam Road, New Delhi- 110003",
    "city": "Delhi",
    "availability": 1,
    "contact": "",
    "isValidated": "1",
    "issue": 0,
    "longitude": "77.215975",
    "name": "EESL Hotel Claridges 1",
    "notes": "",
    "phones": "",
    "pincode": "110003",
    "pricing": "20/min",
    "state": "Delhi",
    "stationid": "132",
    "type": "0",
    "latitude": "28.601201",
    "connectors": ["Type 2"]
  },
  {
    "address": "Janpath Guest House, Connaught Place, New Delhi",
    "city": "Delhi",
    "availability": 1,
    "contact": "",
    "isValidated": "1",
    "issue": 0,
    "longitude": "77.21946",
    "name": "EESL Janpath Guest House",
    "notes": "",
    "phones": "",
    "pincode": "110001",
    "pricing": "20/min",
    "state": "Delhi",
    "stationid": "133",
    "type": "0",
    "latitude": "28.628528",
    "connectors": ["Type 2"]
  },
  {
    "address": "Khan Market, Rabindra Nagar, New Delhi- 110003",
    "city": "Delhi",
    "availability": 1,
    "contact": "",
    "isValidated": "1",
    "issue": 0,
    "longitude": "77.226883",
    "name": "EESL Khan Market",
    "notes": "",
    "phones": "",
    "pincode": "110003",
    "pricing": "26/min",
    "state": "Delhi",
    "stationid": "134",
    "type": "0",
    "latitude": "28.600324",
    "connectors": ["Type 2"]
  },
  {
    "address": "Opposite South Indian Bank, Block E, RR6, Middle Circle, Connaught Place, New Delhi- 110001",
    "city": "Delhi",
    "availability": 1,
    "contact": "",
    "isValidated": "1",
    "issue": 0,
    "longitude": "77.221949",
    "name": "EESL KTM",
    "notes": "",
    "phones": "",
    "pincode": "110001",
    "pricing": "10/min",
    "state": "Delhi",
    "stationid": "137",
    "type": "0",
    "latitude": "28.63363",
    "connectors": ["Type 2"]
  },
  {
    "address": "PSOI Club, Chanakyapuri, New Delhi 110021",
    "city": "Delhi",
    "availability": 1,
    "contact": "",
    "isValidated": "1",
    "issue": 0,
    "longitude": "77.193352",
    "name": "EESL PSOI Club",
    "notes": "",
    "phones": "",
    "pincode": "110021",
    "pricing": "20/min",
    "state": "Delhi",
    "stationid": "143",
    "type": "0",
    "latitude": "28.586638",
    "connectors": ["Type 2"]
  },
  {
    "address": "Outside Chelmsford Club/ Opposite CSIR Building, Rafi Marg, Sansad Marg Area, New Delhi 110001",
    "city": "Delhi",
    "availability": 1,
    "contact": "",
    "isValidated": "1",
    "issue": 0,
    "longitude": "77.2125699",
    "name": "EESL Chelmsford Club",
    "notes": "",
    "phones": "",
    "pincode": "110001",
    "pricing": "20/min",
    "state": "Delhi",
    "stationid": "144",
    "type": "0",
    "latitude": "28.6182604",
    "connectors": ["Type 2"]
  },
  {
    "address": "Talkatora Garden, President's Estate, New Delhi110004",
    "city": "Delhi",
    "availability": 1,
    "contact": "",
    "isValidated": "1",
    "issue": 0,
    "longitude": "77.1956795",
    "name": "EESL Talkatora Garden",
    "notes": "",
    "phones": "",
    "pincode": "110004",
    "pricing": "70/min",
    "state": "Delhi",
    "stationid": "150",
    "type": "0",
    "latitude": "28.6235305",
    "connectors": ["Type 2"]
  },
  {
    "address": "Palika Maternity Hospital, Block 11, Lodhi Colony, Near Khanna Market, New Delhi 110003",
    "city": "Delhi",
    "availability": 1,
    "contact": "",
    "isValidated": "1",
    "issue": 0,
    "longitude": "77.222057",
    "name": "EESL Palika Maternity Hospital",
    "notes": "",
    "phones": "",
    "pincode": "110003",
    "pricing": "50/min",
    "state": "Delhi",
    "stationid": "152",
    "type": "0",
    "latitude": "28.583518",
    "connectors": ["Type 2"]
  },
  {
    "address": "NMDC Parking, Dilli Haat, West Kidwai Nagar, New Delhi 110023",
    "city": "Delhi",
    "availability": 1,
    "contact": "",
    "isValidated": "1",
    "issue": 0,
    "longitude": "77.208662",
    "name": "EESL Delhi Haat",
    "notes": "",
    "phones": "",
    "pincode": "110023",
    "pricing": "80/min",
    "state": "Delhi",
    "stationid": "155",
    "type": "0",
    "latitude": "28.572793",
    "connectors": ["Type 1", "Type 2"]
  },
  {
    "address": "In front of Hexagon pvt ltd, sector-65, Noida ",
    "city": "Noida",
    "availability": 1,
    "contact": "",
    "isValidated": "1",
    "issue": 0,
    "longitude": "77.3814",
    "name": "EESL Hexagon Sector 65 Noida",
    "notes": "",
    "phones": "",
    "pincode": "201301",
    "pricing": "50/min",
    "state": "Uttar Pradesh",
    "stationid": "159",
    "type": "0",
    "latitude": "28.6132",
    "connectors": ["Type 2"]
  },
  {
    "address": "The Mamlatdar Office, Goa",
    "city": "Goa",
    "availability": 1,
    "contact": "",
    "isValidated": "1",
    "issue": 0,
    "longitude": "73.8139",
    "name": "EESL Mamlatdar Office Mapusa Goa",
    "notes": "",
    "phones": "",
    "pincode": "403406",
    "pricing": "30/min",
    "state": "Goa",
    "stationid": "160",
    "type": "0",
    "latitude": "15.588",
    "connectors": ["Type 1", "Type 2"]
  }
]
